<?xml version="1.0" encoding="utf-8" standalone="yes"?>
<gpx version="1.1" creator="Locus Android"
 xmlns="http://www.topografix.com/GPX/1/1"
 xmlns:xsi="http://www.w3.org/2001/XMLSchema-instance"
 xsi:schemaLocation="http://www.topografix.com/GPX/1/1 http://www.topografix.com/GPX/1/1/gpx.xsd"
 xmlns:gpxx="http://www.garmin.com/xmlschemas/GpxExtensions/v3"
 xmlns:gpxtrkx="http://www.garmin.com/xmlschemas/TrackStatsExtension/v1"
 xmlns:gpxtpx="http://www.garmin.com/xmlschemas/TrackPointExtension/v2"
 xmlns:locus="http://www.locusmap.eu">
<wpt lat="51.9184278" lon="5.9607062">
  <name>Duimeling 2 Boerderij </name>
</wpt>
<wpt lat="51.9109813" lon="5.9409620">
  <name>Kamervoort 37 Woonhuis Rozenhaghe </name>
</wpt>
<wpt lat="51.9121365" lon="5.9244658">
  <name>Kamervoort 111 Boerderij De Kroon </name>
</wpt>
<wpt lat="51.9151693" lon="5.9598217">
  <name>Molenstraat 24 Schuur </name>
</wpt>
<wpt lat="51.9150989" lon="5.9595156">
  <name>Molenstraat 26 Boerderij </name>
</wpt>
<wpt lat="51.9011651" lon="5.9617066">
  <name>t Veld 2 Boerderij De Papediemet </name>
</wpt>
<wpt lat="51.9226064" lon="5.9188925">
  <name>Bergerdensestraat 13 Schuur </name>
</wpt>
<wpt lat="51.9227439" lon="5.9182835">
  <name>Bergerdensestraat 15 Boerderij met varkensstal </name>
</wpt>
<wpt lat="51.891336" lon="5.8985771">
  <name>Dorpsstraat 33 Woonhuis Wilberma </name>
</wpt>
<wpt lat="51.8900900" lon="5.8977640">
  <name>Dorpsstraat 71 Woning met siermetselwerk </name>
</wpt>
<wpt lat="51.8899909" lon="5.8978064">
  <name>Dorpsstraat 73 Woonhuis </name>
</wpt>
<wpt lat="51.8966709" lon="5.8827869">
  <name>Groenestraat 40 Boerderij Veld-zicht </name>
</wpt>
<wpt lat="51.8971954" lon="5.9049638">
  <name>Karstraat 15 Woonhuis </name>
</wpt>
<wpt lat="51.8892799" lon="5.8959680">
  <name>Kinkelenburglaan 10 Boerderij </name>
</wpt>
<wpt lat="51.8915707" lon="5.9003956">
  <name>Kloosterplaats 56  </name>
</wpt>
<wpt lat="51.8915975" lon="5.9004250">
  <name>Kloosterplaats 58  </name>
</wpt>
<wpt lat="51.8915884" lon="5.9004539">
  <name>Kloosterplaats 60  </name>
</wpt>
<wpt lat="51.8915887" lon="5.9003959">
  <name>Kloosterplaats 72  </name>
</wpt>
<wpt lat="51.8916064" lon="5.9004542">
  <name>Kloosterplaats 76  </name>
</wpt>
<wpt lat="51.8894114" lon="5.9008503">
  <name>Leemkuilselaan 1 Woonhuis </name>
</wpt>
<wpt lat="51.8887677" lon="6.0029626">
  <name>Blauwe Hoek 3D Zuivelfabriek </name>
</wpt>
<wpt lat="51.8959518" lon="5.9938789">
  <name>Koffiemolen 2 Woonhuis Johanna Hoeve </name>
</wpt>
<wpt lat="51.8995037" lon="5.9901055">
  <name>Koffiemolen 3A  </name>
</wpt>
<wpt lat="51.8995845" lon="5.9901211">
  <name>Koffiemolen 3 Boerderij Nieuwe Meer </name>
</wpt>
<wpt lat="51.8955624" lon="5.9803621">
  <name>Krakkedel 26  </name>
</wpt>
<wpt lat="51.8893389" lon="5.9985689">
  <name>Pannerdenseweg 54 Boerderij De Kamp </name>
</wpt>
<wpt lat="51.8867928" lon="5.9955565">
  <name>Pannerdenseweg 64 Boerderijtjes (2) </name>
</wpt>
<wpt lat="51.8952944" lon="6.0180017">
  <name>Rijndijk 15  </name>
</wpt>
<wpt lat="51.905946" lon="5.9835508">
  <name>Rijndijk 73 Dijkboerderij </name>
</wpt>
<wpt lat="51.9059804" lon="5.9820690">
  <name>Rijndijk 75 Dijkboerderij </name>
</wpt>
<wpt lat="51.8960589" lon="5.9974979">
  <name>Rijnstraat 41 Boerderij </name>
</wpt>
<wpt lat="51.9014921" lon="6.0104020">
  <name>Roswaard 4 Veldoven met twee evenwijdige muren voorzien van zeven stookopeningen </name>
</wpt>
<wpt lat="51.8773494" lon="5.9189238">
  <name>Buitenpolder 10  </name>
</wpt>
<wpt lat="51.8825844" lon="5.9357032">
  <name>De Hoek 3  </name>
</wpt>
<wpt lat="51.8825936" lon="5.9356741">
  <name>De Hoek 5  </name>
</wpt>
<wpt lat="51.8856559" lon="5.9285216">
  <name>van der Mondeweg 22 Pastorie </name>
</wpt>
<wpt lat="51.8864637" lon="5.9268173">
  <name>van der Mondeweg 30 Boerderij </name>
</wpt>
<wpt lat="51.939701" lon="5.9406036">
  <name>Arnhemsepoort 67-75 Woonhuis </name>
</wpt>
<wpt lat="51.9211789" lon="5.9322640">
  <name>Geldersehoek 8 Boerderij </name>
</wpt>
<wpt lat="51.9348460" lon="5.9404861">
  <name>Helmichstraat 15 Boerderij </name>
</wpt>
<wpt lat="51.9323933" lon="5.9329381">
  <name>Huismanstraat 42 Woonhuis in Expressionisme elementen </name>
</wpt>
<wpt lat="51.9302882" lon="5.9313858">
  <name>Huismanstraat 50 Boerderij </name>
</wpt>
<wpt lat="51.9401212" lon="5.9391545">
  <name>Korte Loostraat 9 Woonhuis </name>
</wpt>
<wpt lat="51.9401395" lon="5.9390965">
  <name>Korte Loostraat 11  </name>
</wpt>
<wpt lat="51.9412260" lon="5.9373938">
  <name>Korte Loostraat 48 Woonhuis </name>
</wpt>
<wpt lat="51.9376411" lon="5.9428032">
  <name>Langestraat 7  </name>
</wpt>
<wpt lat="51.9385797" lon="5.9420294">
  <name>Langestraat 29 Woonhuis </name>
</wpt>
<wpt lat="51.9390045" lon="5.9415258">
  <name>Langestraat 43 Dubbel woonhuis </name>
</wpt>
<wpt lat="51.939283" lon="5.9415582">
  <name>Langestraat 80 Woonhuis </name>
</wpt>
<wpt lat="51.9302996" lon="5.9684184">
  <name>Middelwaard 2 Boerderij met varkensstallen </name>
</wpt>
<wpt lat="51.935132" lon="5.9431211">
  <name>Stadsdam 1  </name>
</wpt>
<wpt lat="51.9302144" lon="5.9375933">
  <name>Stadswal 59 Boerderij Kemke </name>
</wpt>
<wpt lat="51.9265734" lon="5.9280550">
  <name>van Wijkstraat 35 Pastorie </name>
</wpt>
<wpt lat="51.9381612" lon="5.9411955">
  <name>Vicariestraat 1 Notariswoning Vicarie in Delftse school stijl </name>
</wpt>
<wpt lat="51.9381953" lon="5.9415739">
  <name>Vicariestraat 3-5 Dubbel woonhuis </name>
</wpt>
<wpt lat="51.9396375" lon="5.9407191">
  <name>Walstraat 47 Woonhuizen </name>
</wpt>
<wpt lat="51.8904569" lon="5.8683660">
  <name>Kerkenhofstraat 1 Woonhuis Stadwijk in Eclecticisme stijl </name>
</wpt>
<wpt lat="51.8898464" lon="5.8681996">
  <name>Kerkenhofstraat 5 Woonhuis </name>
</wpt>
<wpt lat="51.8906566" lon="5.8722758">
  <name>Ressensestraat 21 Woonhuis Huize 't Spijck </name>
</wpt>
</gpx>
