<?xml version="1.0" encoding="utf-8" standalone="yes"?>
<gpx version="1.1" creator="Locus Android"
 xmlns="http://www.topografix.com/GPX/1/1"
 xmlns:xsi="http://www.w3.org/2001/XMLSchema-instance"
 xsi:schemaLocation="http://www.topografix.com/GPX/1/1 http://www.topografix.com/GPX/1/1/gpx.xsd"
 xmlns:gpxx="http://www.garmin.com/xmlschemas/GpxExtensions/v3"
 xmlns:gpxtrkx="http://www.garmin.com/xmlschemas/TrackStatsExtension/v1"
 xmlns:gpxtpx="http://www.garmin.com/xmlschemas/TrackPointExtension/v2"
 xmlns:locus="http://www.locusmap.eu">
<wpt lat="51.193528" lon="6.0483672">
  <name>Dorpsstraat Woonhuis/boerderij </name>
</wpt>
<wpt lat="51.1903151" lon="6.0557793">
  <name>Heide Boerderij </name>
</wpt>
<wpt lat="51.1878041" lon="6.0449016">
  <name>Kerkstraat Kerk </name>
</wpt>
<wpt lat="51.1878041" lon="6.0449016">
  <name>Kerkstraat St Jozefschool </name>
</wpt>
<wpt lat="51.1946850" lon="6.0327286">
  <name>Spik Woonhuis/boerderij </name>
</wpt>
<wpt lat="51.1970817" lon="6.0409403">
  <name>Spikkerweg Trafohuisje </name>
</wpt>
<wpt lat="51.1856824" lon="6.0353575">
  <name>Straat Boerderij: Straterhof </name>
</wpt>
<wpt lat="51.2275828" lon="6.0223144">
  <name>Asseltsestraat Woonhuis </name>
</wpt>
<wpt lat="51.2342388" lon="6.0292474">
  <name>Naborchweg Boerderij - Genoenhof </name>
</wpt>
<wpt lat="51.2342388" lon="6.0292474">
  <name>Naborchweg Restanten 18de-eeuwse steenoven nabij de Ouborch </name>
</wpt>
<wpt lat="51.2217888" lon="6.0153017">
  <name>Pastoor Pinckersstraat Boerderij - Syperhof/Sieperhof </name>
</wpt>
<wpt lat="51.2326938" lon="6.0201308">
  <name>Schroefstraat Boerderij - Genaenhof </name>
</wpt>
<wpt lat="51.215027" lon="6.0455213">
  <name>Beneden Boukoul H. Theresia kerk </name>
</wpt>
<wpt lat="51.2149503" lon="6.0486613">
  <name>Kerkweg Pastorie H. Theresia </name>
</wpt>
<wpt lat="51.1858758" lon="5.9526194">
  <name>Broekstraat Woonhuis </name>
</wpt>
<wpt lat="51.1830452" lon="5.9707760">
  <name>Hondsbergje Wandtableau boven garage </name>
</wpt>
<wpt lat="51.1814338" lon="5.9657578">
  <name>Kerkpad Pastorie, woonhuis </name>
</wpt>
<wpt lat="51.1814338" lon="5.9657578">
  <name>Kerkpad R,K. kerk </name>
</wpt>
<wpt lat="51.1814338" lon="5.9657578">
  <name>Kerkpad Woonhuis </name>
</wpt>
<wpt lat="51.1879818" lon="5.9481081">
  <name>Kleine Kemp Langgevelboerderij </name>
</wpt>
<wpt lat="51.1779668" lon="5.9668199">
  <name>Offerkamp Grote vrijstaande boerderij, markant gelegen op kruispunt met aanpalende bedrijfsgebouwen </name>
</wpt>
<wpt lat="51.1740688" lon="5.9578157">
  <name>Oudeborgstraat Woonhuis </name>
</wpt>
<wpt lat="51.1536297" lon="5.9451604">
  <name>Rijksweg Trafohuisje </name>
</wpt>
<wpt lat="51.1808002" lon="5.9683668">
  <name>Roermondsestraat Woonhuis, compleet in stijl met muurtje langs de straat, op hoek </name>
</wpt>
<wpt lat="51.1834670" lon="5.9616286">
  <name>Schoolstraat Voormalig gemeentehuis SPQH, bedrijfspand </name>
</wpt>
<wpt lat="51.2140467" lon="5.9950963">
  <name>Schilbergsweg Woonhuis/boerderij </name>
</wpt>
<wpt lat="51.1985268" lon="6.0122211">
  <name>Beekweg Boerderij </name>
</wpt>
<wpt lat="51.1964803" lon="6.0108006">
  <name>Eiermarkt Schuur bij boerderij </name>
</wpt>
<wpt lat="51.1969216" lon="6.0127846">
  <name>Heuvel Voormalige boerderij </name>
</wpt>
<wpt lat="51.1997201" lon="6.0087175">
  <name>Julianalaan Kantoor </name>
</wpt>
<wpt lat="51.1997201" lon="6.0087175">
  <name>Julianalaan Boerderij </name>
</wpt>
<wpt lat="51.1997201" lon="6.0087175">
  <name>Julianalaan Woonhuis </name>
</wpt>
<wpt lat="51.1997201" lon="6.0087175">
  <name>Julianalaan Woonhuis (eigenaar brouwerij Bremmers) </name>
</wpt>
<wpt lat="51.1997201" lon="6.0087175">
  <name>Julianalaan Boerderij </name>
</wpt>
<wpt lat="51.1997201" lon="6.0087175">
  <name>Julianalaan Boerderij </name>
</wpt>
<wpt lat="51.1986324" lon="6.0128138">
  <name>Raadhuisstraat Woonhuis en bedrijfspand (vml. smid) </name>
</wpt>
<wpt lat="51.1986324" lon="6.0128138">
  <name>Raadhuisstraat Schuur </name>
</wpt>
<wpt lat="51.2024932" lon="6.0103841">
  <name>Wilhelminalaan Appartementencomplex (vml. Laurentiusschool) </name>
</wpt>
<wpt lat="51.2024932" lon="6.0103841">
  <name>Wilhelminalaan Woonhuis (vml. onderwijzerswoning) </name>
</wpt>
<wpt lat="51.2024932" lon="6.0103841">
  <name>Wilhelminalaan Tweetal woonhuizen </name>
</wpt>
<wpt lat="51.1915604" lon="5.9874770">
  <name>Bakkerstraat Woonhuis/winkelpand </name>
</wpt>
<wpt lat="51.1915604" lon="5.9874770">
  <name>Bakkerstraat Woonhuis/winkelpand </name>
</wpt>
<wpt lat="51.1944391" lon="5.9856006">
  <name>Bergstraat Woonhuis/bedrijfspand Steenweg 2, 2b </name>
</wpt>
<wpt lat="51.1962556" lon="5.9894229">
  <name>Bethlehemstraat Groot Seminarie </name>
</wpt>
<wpt lat="51.1946302" lon="5.9847049">
  <name>Brugstraat Woonhuis/bedrijfspand </name>
</wpt>
<wpt lat="51.1946302" lon="5.9847049">
  <name>Brugstraat Woonhuis/bedrijfspand </name>
</wpt>
<wpt lat="51.1946302" lon="5.9847049">
  <name>Brugstraat Woonhuis/bedrijfspand </name>
</wpt>
<wpt lat="51.1946302" lon="5.9847049">
  <name>Brugstraat Woonhuis/bedrijfspand </name>
</wpt>
<wpt lat="51.2091297" lon="5.9732076">
  <name>De Weerd Kapel </name>
</wpt>
<wpt lat="51.2091297" lon="5.9732076">
  <name>De Weerd Woonhuis in traditionalistische stijl </name>
</wpt>
<wpt lat="51.2091297" lon="5.9732076">
  <name>De Weerd Trafohuisje </name>
</wpt>
<wpt lat="51.2091297" lon="5.9732076">
  <name>De Weerd Trafohuisje </name>
</wpt>
<wpt lat="51.2091297" lon="5.9732076">
  <name>De Weerd Trafohuisje </name>
</wpt>
<wpt lat="51.1905183" lon="5.9842856">
  <name>Dokter Leursstraat Geschakelde arbeiderswoningen </name>
</wpt>
<wpt lat="51.1905183" lon="5.9842856">
  <name>Dokter Leursstraat Woonhuis </name>
</wpt>
<wpt lat="51.1905183" lon="5.9842856">
  <name>Dokter Leursstraat Woonhuis </name>
</wpt>
<wpt lat="51.1905183" lon="5.9842856">
  <name>Dokter Leursstraat Bovenwoningen in stadsvilla met zeer bijzondere oranmenten </name>
</wpt>
<wpt lat="51.1905183" lon="5.9842856">
  <name>Dokter Leursstraat Woonhuis, dakrand, begane grond Jugendstil </name>
</wpt>
<wpt lat="51.1907245" lon="5.9838727">
  <name>Dokter Leurszijstraat Geschakelde arbeiderswoningen </name>
</wpt>
<wpt lat="51.1907245" lon="5.9838727">
  <name>Dokter Leurszijstraat Geschakelde arbeiderswoningen </name>
</wpt>
<wpt lat="51.1856273" lon="6.0026771">
  <name>Gebroek Langgevelboerderij </name>
</wpt>
<wpt lat="51.1856273" lon="6.0026771">
  <name>Gebroek Kapelletje </name>
</wpt>
<wpt lat="51.1941989" lon="5.9934346">
  <name>Godsweerdersingel Pand in neorenaissance stijl </name>
</wpt>
<wpt lat="51.1941989" lon="5.9934346">
  <name>Godsweerdersingel Woonhuis/bedrijfspand: Knevelgraafstraat 16 </name>
</wpt>
<wpt lat="51.1941989" lon="5.9934346">
  <name>Godsweerdersingel Locomotief loods </name>
</wpt>
<wpt lat="51.1963838" lon="5.9851171">
  <name>Grote Kerkstraat  </name>
</wpt>
<wpt lat="51.1963838" lon="5.9851171">
  <name>Grote Kerkstraat Woonhuis </name>
</wpt>
<wpt lat="51.1963838" lon="5.9851171">
  <name>Grote Kerkstraat Woonhuis: pastorie </name>
</wpt>
<wpt lat="51.1994542" lon="5.9888366">
  <name>Grote Stadsweide Toegangsweg tot stuw </name>
</wpt>
<wpt lat="51.1931784" lon="5.9904281">
  <name>Hamstraat Woonhuis/bedrijfspand </name>
</wpt>
<wpt lat="51.1931784" lon="5.9904281">
  <name>Hamstraat Gevelkunst </name>
</wpt>
<wpt lat="51.1931784" lon="5.9904281">
  <name>Hamstraat Woonhuis/bedrijfspand </name>
</wpt>
<wpt lat="51.1931784" lon="5.9904281">
  <name>Hamstraat Joodse synagoge </name>
</wpt>
<wpt lat="51.1931784" lon="5.9904281">
  <name>Hamstraat Woonhuis/bedrijfspand (oude bioscoop) </name>
</wpt>
<wpt lat="51.177679" lon="6.0126506">
  <name>Heidebaan Arbeiderswoning met stal </name>
</wpt>
<wpt lat="51.177679" lon="6.0126506">
  <name>Heidebaan Hofboerderij </name>
</wpt>
<wpt lat="51.1952925" lon="5.9888955">
  <name>Heilige Geeststraat Woonhuis/bedrijfspand </name>
</wpt>
<wpt lat="51.1952925" lon="5.9888955">
  <name>Heilige Geeststraat Woonhuis: samen met Heilige Geeststraat 4 en Munsterstraat 1, 1b/d een complex </name>
</wpt>
<wpt lat="51.1952925" lon="5.9888955">
  <name>Heilige Geeststraat Woonhuis/bedrijfspand </name>
</wpt>
<wpt lat="51.1952925" lon="5.9888955">
  <name>Heilige Geeststraat Woonhuis/bedrijfspand </name>
</wpt>
<wpt lat="51.1726601" lon="6.0022242">
  <name>Heinsbergerweg Schöndeln schoolgebouw </name>
</wpt>
<wpt lat="51.1878627" lon="5.9970012">
  <name>Hendriklaan Bedrijfspand met schilddak </name>
</wpt>
<wpt lat="51.1809011" lon="6.0001907">
  <name>Herkenbosscherweg Woonhuis </name>
</wpt>
<wpt lat="51.1809011" lon="6.0001907">
  <name>Herkenbosscherweg Woonhuis </name>
</wpt>
<wpt lat="51.1809011" lon="6.0001907">
  <name>Herkenbosscherweg Woonhuis </name>
</wpt>
<wpt lat="51.1809011" lon="6.0001907">
  <name>Herkenbosscherweg Schoolgebouw </name>
</wpt>
<wpt lat="51.1809011" lon="6.0001907">
  <name>Herkenbosscherweg Woonhuis </name>
</wpt>
<wpt lat="51.1815916" lon="5.9821378">
  <name>Hoflaan Oude boerderij, U- vormig, jaartal 1713 boven ingang </name>
</wpt>
<wpt lat="51.1815916" lon="5.9821378">
  <name>Hoflaan Boerderij annex herenhuis met daaraan vastgebouwd de schuur en aan de overzijde van het erf de stal (aan de Maastrichtereg) </name>
</wpt>
<wpt lat="51.1765746" lon="6.0004778">
  <name>Javastraat Voormalige school </name>
</wpt>
<wpt lat="51.1957131" lon="5.9873468">
  <name>Jesuitenstraat Woonhuis </name>
</wpt>
<wpt lat="51.1920526" lon="5.9895447">
  <name>Kloosterwandplein Wandtableau </name>
</wpt>
<wpt lat="51.1923211" lon="5.9897587">
  <name>Kloosterwandstraat Woonhuis </name>
</wpt>
<wpt lat="51.189061" lon="5.9984950">
  <name>Kon.Regentesselaan Geschakelde arbeiderswoningen </name>
</wpt>
<wpt lat="51.1958941" lon="5.9884512">
  <name>Lindanusstraat Woonhuis </name>
</wpt>
<wpt lat="51.1958941" lon="5.9884512">
  <name>Lindanusstraat Woonhuis </name>
</wpt>
<wpt lat="51.1958941" lon="5.9884512">
  <name>Lindanusstraat Woonhuis/bedrijfspand: Heilige Geeststraat 27 </name>
</wpt>
<wpt lat="51.1958941" lon="5.9884512">
  <name>Lindanusstraat Woonhuizen </name>
</wpt>
<wpt lat="51.1956394" lon="5.9849735">
  <name>Luifelstraat Gevelkunst </name>
</wpt>
<wpt lat="51.1983706" lon="5.9801665">
  <name>Maasbrug Brug </name>
</wpt>
<wpt lat="51.1955813" lon="5.9852980">
  <name>Markt Woonhuis/bedrijfspand aan achterzijde Luifelstraat 7c </name>
</wpt>
<wpt lat="51.1955813" lon="5.9852980">
  <name>Markt Gemeentehuis: entrée </name>
</wpt>
<wpt lat="51.1955813" lon="5.9852980">
  <name>Markt Glas-in-Lood vensters </name>
</wpt>
<wpt lat="51.1955813" lon="5.9852980">
  <name>Markt Woonhuis/bedrijfspand </name>
</wpt>
<wpt lat="51.1949374" lon="5.9853224">
  <name>Marktstraat Winkel met bovenwoning </name>
</wpt>
<wpt lat="51.1949374" lon="5.9853224">
  <name>Marktstraat Gevelkunst </name>
</wpt>
<wpt lat="51.1914744" lon="5.9981663">
  <name>Mgr. Driessenstraat Trafohuisje </name>
</wpt>
<wpt lat="51.1890572" lon="5.9871946">
  <name>Mgr. Van Gilsstraat Woonhuis </name>
</wpt>
<wpt lat="51.1910587" lon="5.9856783">
  <name>Minderbroederssingel Heilig Geestkerk </name>
</wpt>
<wpt lat="51.1910587" lon="5.9856783">
  <name>Minderbroederssingel Stadsvilla met zeer bijzondere ornamenten, topgevel, overdwars balkon met koepels, glas in lood </name>
</wpt>
<wpt lat="51.1910587" lon="5.9856783">
  <name>Minderbroederssingel Woonhuis/bedrijfspand </name>
</wpt>
<wpt lat="51.1916908" lon="5.9865032">
  <name>Minderbroedersstraat Woonhuis/bedrijfspand </name>
</wpt>
<wpt lat="51.1941991" lon="6.0010635">
  <name>Minister Beverstraat School </name>
</wpt>
<wpt lat="51.1905499" lon="5.9815006">
  <name>Molenweg Tweelaags dwarshuis met zadeldak </name>
</wpt>
<wpt lat="51.1905499" lon="5.9815006">
  <name>Molenweg Panden in gevelrij, bij fabriek, fraaie daklijst </name>
</wpt>
<wpt lat="51.1914744" lon="5.9981663">
  <name>Monseigneur Driessenstraat Mortuarium </name>
</wpt>
<wpt lat="51.1936765" lon="5.9879879">
  <name>Munsterplein Woonhuis/bedrijfspand: Paredisstraat 16 </name>
</wpt>
<wpt lat="51.1936765" lon="5.9879879">
  <name>Munsterplein Woonhuis/bedrijfspand </name>
</wpt>
<wpt lat="51.1936765" lon="5.9879879">
  <name>Munsterplein Woonhuis/bedrijfspand </name>
</wpt>
<wpt lat="51.1936765" lon="5.9879879">
  <name>Munsterplein Woonhuis/bedrijfspand </name>
</wpt>
<wpt lat="51.1936765" lon="5.9879879">
  <name>Munsterplein Woonhuis/bedrijfspand </name>
</wpt>
<wpt lat="51.1936765" lon="5.9879879">
  <name>Munsterplein Gevelkunst </name>
</wpt>
<wpt lat="51.1944068" lon="5.9881739">
  <name>Munsterstraat Woonhuis: Heilige Geeststraat 2 en 4 </name>
</wpt>
<wpt lat="51.1931609" lon="5.9856479">
  <name>Neerstraat Woonhuis/bedrijfspand </name>
</wpt>
<wpt lat="51.1931609" lon="5.9856479">
  <name>Neerstraat Woonhuis/bedrijfspand Molenstraat 15 </name>
</wpt>
<wpt lat="51.1931609" lon="5.9856479">
  <name>Neerstraat Woonhuis </name>
</wpt>
<wpt lat="51.1931609" lon="5.9856479">
  <name>Neerstraat Woonhuis/bedrijfspand </name>
</wpt>
<wpt lat="51.1931609" lon="5.9856479">
  <name>Neerstraat Woonhuis/bedrijfspand </name>
</wpt>
<wpt lat="51.1920535" lon="6.0107745">
  <name>Oranjelaan Spoortunnel </name>
</wpt>
<wpt lat="51.1931746" lon="5.9863794">
  <name>Paredisstraat Woonhuis/bedrijfspand </name>
</wpt>
<wpt lat="51.1931746" lon="5.9863794">
  <name>Paredisstraat Woonhuis/bedrijfspand </name>
</wpt>
<wpt lat="51.1931746" lon="5.9863794">
  <name>Paredisstraat Woonhuis </name>
</wpt>
<wpt lat="51.197513" lon="5.9873714">
  <name>Pastoorswal Woonhuis: Grote Kerkstraat 27 </name>
</wpt>
<wpt lat="51.197513" lon="5.9873714">
  <name>Pastoorswal Woonhuis </name>
</wpt>
<wpt lat="51.197513" lon="5.9873714">
  <name>Pastoorswal Woonhuis </name>
</wpt>
<wpt lat="51.1779327" lon="5.9952279">
  <name>Pater Bleyslaan Houten huis </name>
</wpt>
<wpt lat="51.1779327" lon="5.9952279">
  <name>Pater Bleyslaan Houten huis </name>
</wpt>
<wpt lat="51.1773884" lon="5.9963784">
  <name>Petrus Polliusstraat Tuinkoepel </name>
</wpt>
<wpt lat="51.1816793" lon="5.9789352">
  <name>Roerderweg Ingangsportaal zuidgevel </name>
</wpt>
<wpt lat="51.1952813" lon="5.9840036">
  <name>Roerkade Woonhuis/bedrijfspand </name>
</wpt>
<wpt lat="51.1952813" lon="5.9840036">
  <name>Roerkade Woonhuis/bedrijfspand </name>
</wpt>
<wpt lat="51.1856666" lon="6.0018181">
  <name>Roermondsestraat Arbeiderswoningen </name>
</wpt>
<wpt lat="51.1950335" lon="5.9877126">
  <name>Schoenmakersstraat Winkel / winkelmagazijn samen met Steenweg 1 </name>
</wpt>
<wpt lat="51.1908081" lon="5.9885718">
  <name>Schuitenberg Woonhuis </name>
</wpt>
<wpt lat="51.1924026" lon="5.9879144">
  <name>Sint Christoffelstraat Woonhuis/bedrijfspand </name>
</wpt>
<wpt lat="51.1924026" lon="5.9879144">
  <name>Sint Christoffelstraat Woonhuis/bedrijfspand </name>
</wpt>
<wpt lat="51.1911475" lon="5.9914278">
  <name>Sint Corneliusstraat Woonhuis/bedrijfspand: Willem II Singel 16 </name>
</wpt>
<wpt lat="51.1970446" lon="5.9876173">
  <name>Sint Jansstraat Woonhuis </name>
</wpt>
<wpt lat="51.1979398" lon="5.9971802">
  <name>Slachthuisstraat Seinwachtershuisje </name>
</wpt>
<wpt lat="51.1976575" lon="5.9914447">
  <name>Steegstraat Woonhuis </name>
</wpt>
<wpt lat="51.1941065" lon="5.9869496">
  <name>Steenweg Winkel met bovenwoning </name>
</wpt>
<wpt lat="51.1941065" lon="5.9869496">
  <name>Steenweg Woonhuis/bedrijfspand </name>
</wpt>
<wpt lat="51.1941065" lon="5.9869496">
  <name>Steenweg Bedrijfspand </name>
</wpt>
<wpt lat="51.1941065" lon="5.9869496">
  <name>Steenweg Woonhuis/bedrijfspand </name>
</wpt>
<wpt lat="51.1967541" lon="5.9881494">
  <name>Swalmerstraat Woonhuis </name>
</wpt>
<wpt lat="51.1967541" lon="5.9881494">
  <name>Swalmerstraat Woonhuis </name>
</wpt>
<wpt lat="51.1967541" lon="5.9881494">
  <name>Swalmerstraat Groot Seminarie: Bethlehemstraat 1, 3, 5, 7, 9, 11 </name>
</wpt>
<wpt lat="51.1967541" lon="5.9881494">
  <name>Swalmerstraat Woonhuis </name>
</wpt>
<wpt lat="51.1951474" lon="5.9862299">
  <name>Varkensmarkt Woonhuis/bedrijfspand </name>
</wpt>
<wpt lat="51.1951474" lon="5.9862299">
  <name>Varkensmarkt Woonhuis/bedrijfspand </name>
</wpt>
<wpt lat="51.1951474" lon="5.9862299">
  <name>Varkensmarkt Woonhuis/bedrijfspand </name>
</wpt>
<wpt lat="51.1951474" lon="5.9862299">
  <name>Varkensmarkt Woonhuis/bedrijfspand </name>
</wpt>
<wpt lat="51.1903198" lon="5.9926077">
  <name>Veeladingstraat Bedrijfspand </name>
</wpt>
<wpt lat="51.197291" lon="5.9922008">
  <name>Venlosepoort Woonhuis </name>
</wpt>
<wpt lat="51.197291" lon="5.9922008">
  <name>Venlosepoort Woonhuis </name>
</wpt>
<wpt lat="51.197291" lon="5.9922008">
  <name>Venlosepoort Woonhuis/bedrijfspand: Wilhelminaplein 23 </name>
</wpt>
<wpt lat="51.1876857" lon="5.9979964">
  <name>Vondelstraat Woonhuizen met baksteenversiering om entree en in topgevel, gescheiden door poorten met overeenkomstige baksteenversiering </name>
</wpt>
<wpt lat="51.1960813" lon="5.9916121">
  <name>Voogdijstraat Woonhuis </name>
</wpt>
<wpt lat="51.1960813" lon="5.9916121">
  <name>Voogdijstraat Woonhuis </name>
</wpt>
<wpt lat="51.191153" lon="5.9784062">
  <name>Voorstad St. Jacob Herenhuis, gevelsteen 1883 </name>
</wpt>
<wpt lat="51.191153" lon="5.9784062">
  <name>Voorstad St. Jacob Woonhuis, basis </name>
</wpt>
<wpt lat="51.191153" lon="5.9784062">
  <name>Voorstad St. Jacob Herenhuis </name>
</wpt>
<wpt lat="51.191153" lon="5.9784062">
  <name>Voorstad St. Jacob Woonhuis, dakkapel </name>
</wpt>
<wpt lat="51.191153" lon="5.9784062">
  <name>Voorstad St. Jacob Herenhuis met inrijpoort, versierde dakrand </name>
</wpt>
<wpt lat="51.1806513" lon="5.9817765">
  <name>Walbreukergraaf Oude langgevel boerderij </name>
</wpt>
<wpt lat="51.1970266" lon="5.9933879">
  <name>Wilhelminaplein Woonhuis: Venlosepoort 8, 10 </name>
</wpt>
<wpt lat="51.1980787" lon="5.9885696">
  <name>Wilhelminasingel Woonhuis, theehuis, tuinmuur, voormalig woonhuis atelier J. Nicolas </name>
</wpt>
<wpt lat="51.1980787" lon="5.9885696">
  <name>Wilhelminasingel Interpolis toren </name>
</wpt>
<wpt lat="51.1906355" lon="5.9915389">
  <name>Willem II Singel Woonhuis </name>
</wpt>
<wpt lat="51.1906355" lon="5.9915389">
  <name>Willem II Singel Woonhuis/bedrijfspand </name>
</wpt>
<wpt lat="51.1906355" lon="5.9915389">
  <name>Willem II Singel Woonhuis </name>
</wpt>
<wpt lat="51.1906355" lon="5.9915389">
  <name>Willem II Singel Woonhuis met versierde lijstgevel en gootklossen met balkon </name>
</wpt>
<wpt lat="51.1906355" lon="5.9915389">
  <name>Willem II Singel Woonhuis met opvallende deur- en raamomlijstingen </name>
</wpt>
<wpt lat="51.1906355" lon="5.9915389">
  <name>Willem II Singel Woonhuis met opvallende deur- en raamomlijstingen </name>
</wpt>
<wpt lat="51.1906355" lon="5.9915389">
  <name>Willem II Singel Woonhuis met opvallende deur- en raamomlijstingen </name>
</wpt>
<wpt lat="51.190189" lon="5.9875300">
  <name>Zwartbroekstraat Woonhuis </name>
</wpt>
<wpt lat="51.190189" lon="5.9875300">
  <name>Zwartbroekstraat Woonhuis/bedrijfspand </name>
</wpt>
<wpt lat="51.190189" lon="5.9875300">
  <name>Zwartbroekstraat Woonhuis/bedrijfspand </name>
</wpt>
<wpt lat="51.228647" lon="6.0302885">
  <name>Beekstraat Voormalige boerderij </name>
</wpt>
<wpt lat="51.2348924" lon="6.0616316">
  <name>Bosstraat Calvarieberg en oorlogsmonumenten </name>
</wpt>
<wpt lat="51.2348924" lon="6.0616316">
  <name>Bosstraat Bunkers </name>
</wpt>
<wpt lat="51.2305891" lon="6.0363188">
  <name>Brugstraat Theehuis </name>
</wpt>
<wpt lat="51.2305891" lon="6.0363188">
  <name>Brugstraat Keermuur oude kerkhof </name>
</wpt>
<wpt lat="51.2391903" lon="6.0451630">
  <name>Heide Boerderij Sagershof </name>
</wpt>
<wpt lat="51.2408566" lon="6.0550852">
  <name>Heydweg Landweer - Wolfsgraaf </name>
</wpt>
<wpt lat="51.2255651" lon="6.0355223">
  <name>Meestersweg Vml. Waterpomp </name>
</wpt>
<wpt lat="51.2301604" lon="6.0344454">
  <name>Molenstraat Voormalige watermolen Meulehoes </name>
</wpt>
<wpt lat="51.2203467" lon="6.0411265">
  <name>Riet Ijskelders </name>
</wpt>
<wpt lat="51.2233716" lon="6.0272609">
  <name>Rijksweg Zuid Herberg De Zwaan </name>
</wpt>
<wpt lat="51.2233716" lon="6.0272609">
  <name>Rijksweg Zuid Slijterij </name>
</wpt>
<wpt lat="51.2350599" lon="6.0325526">
  <name>Stationsstraat Station </name>
</wpt>
<wpt lat="51.2350599" lon="6.0325526">
  <name>Stationsstraat Woonhuis </name>
</wpt>
<wpt lat="51.2434109" lon="6.0557828">
  <name>Veestraat Landweer - Wolfsgraaf </name>
</wpt>
<wpt lat="51.2353599" lon="6.0282922">
  <name>Middelhoven Boerderij </name>
</wpt>
<wpt lat="51.2353599" lon="6.0282922">
  <name>Middelhoven Boerderij </name>
</wpt>
<wpt lat="51.2353599" lon="6.0282922">
  <name>Middelhoven Boerderij </name>
</wpt>
</gpx>
